{
    "Subjects": [
        {
            "Name": "School",
            "Items": [
                {
                    "Name": "School",
                    "ImageName": "1.jpg",
                    "Information": "Avans Hogeschool Breda",
                    "Lattitude": "51.585477",
                    "Longitude": "4.793091",
                    "Open": [
                        { "OpenDay": "0", "OpenFrom": "8", "OpenTill": "18" },
                        { "OpenDay": "1", "OpenFrom": "8", "OpenTill": "18" },
                        { "OpenDay": "2", "OpenFrom": "8", "OpenTill": "18" },
                        { "OpenDay": "3", "OpenFrom": "8", "OpenTill": "18" },
                        { "OpenDay": "4", "OpenFrom": "8", "OpenTill": "18" }
                    ]
                }
            ]
        },
        {
            "Name": "Historische Km",
            "Items": [
                {
                    "Name": "VVV",
                    "ImageName": "2.jpg",
                    "Information": "This is the building of the VVV-building. This is where you also return this phone.",
                    "Lattitude": "51.5942879",
                    "Longitude": "4.779192",
                    "Open": [ ]
                },
                {
                    "Name": "Liefdeszuster",
                    "ImageName": "3.jpg",
                    "Information": "Bla bla bla",
                    "Lattitude": "51.593278",
                    "Longitude": "4.779388",
                    "Open": [ ]
                },
                {
                    "Name": "Nassau Baronie Monument",
                    "ImageName": "4.jpg",
                    "Information": "Nassau Baronie Monument",
                    "Lattitude": "51.592500",
                    "Longitude": "4.779695",
                    "Open": [ ]
                },
                {
                    "Name": "Light House",
                    "ImageName": "5.jpg",
                    "Information": "Light House",
                    "Lattitude": "51.592743",
                    "Longitude": "4.778478",
                    "Open": [ ]
                },
                {
                    "Name": "TS 1",
                    "ImageName": "2.jpg",
                    "Information": "Unknown",
                    "Lattitude": "51.592667",
                    "Longitude": "4.777917",
                    "Open": [ ]
                },
                {
                    "Name": "TS 2",
                    "ImageName": "2.jpg",
                    "Information": "Unknonw",
                    "Lattitude": "51.591255",
                    "Longitude": "4.777188",
                    "Open": [ ]
                },
                {
                    "Name": "Kasteel van Breda",
                    "ImageName": "6.jpg",
                    "Information": "Kasteel",
                    "Lattitude": "51.590515",
                    "Longitude": "4.776223",
                    "Open": [ ]
                },
                {
                    "Name": "Stadhouderspoort",
                    "ImageName": "11.jpg",
                    "Information": "Stadhouderspoort",
                    "Lattitude": "51.589695",
                    "Longitude": "4.776138",
                    "Open": [ ]
                },
                {
                    "Name": "Huis van Brecht",
                    "ImageName": "7.jpg",
                    "Information": "Huis van Brecht",
                    "Lattitude": "51.590028",
                    "Longitude": "4.774362",
                    "Open": [ ]
                },
                {
                    "Name": "Spanjaardsgat",
                    "ImageName": "21.jpg",
                    "Information": "Spanjaardsgat",
                    "Lattitude": "51.590195",
                    "Longitude": "4.773445",
                    "Open": [ ]
                },
                {
                    "Name": "Vismarkt",
                    "ImageName": "19.jpg",
                    "Information": "Vismarkt",
                    "Lattitude": "51.589833",
                    "Longitude": "4.773333",
                    "Open": [ ]
                },
                {
                    "Name": "Havermarkt",
                    "ImageName": "19.jpg",
                    "Information": "Havermarkt",
                    "Lattitude": "51.589362",
                    "Longitude": "4.774445",
                    "Open": [ ]
                },
                {
                    "Name": "Grote Kerk",
                    "ImageName": "17.jpg",
                    "Information": "Grote kerk",
                    "Lattitude": "51.588833",
                    "Longitude": "4.775278",
                    "Open": [ ]
                },
                {
                    "Name": "Het Poortje",
                    "ImageName": "15.jpg",
                    "Information": "Het poortje",
                    "Lattitude": "51.588195",
                    "Longitude": "4.775138",
                    "Open": [ ]
                },
                {
                    "Name": "Ridderstraat",
                    "ImageName": "8.jpg",
                    "Information": "Ridderstraat",
                    "Lattitude": "51.587083",
                    "Longitude": "4.775750",
                    "Open": [ ]
                },
                {
                    "Name": "Grote Markt",
                    "ImageName": "19.jpg",
                    "Information": "Grote markt",
                    "Lattitude": "51.587417",
                    "Longitude": "4.776555",
                    "Open": [ ]
                },
                {
                    "Name": "Bevrijdingsmonument",
                    "ImageName": "18.jpg",
                    "Information": "Bevrijdingsmonument",
                    "Lattitude": "51.588028",
                    "Longitude": "4.776333",
                    "Open": [ ]
                },
                {
                    "Name": "Stadhuis",
                    "ImageName": "13.jpg",
                    "Information": "Stadhuis",
                    "Lattitude": "51.588750",
                    "Longitude": "4.776112",
                    "Open": [ ]
                },
                {
                    "Name": "Antonius van Paduakerk",
                    "ImageName": "16.jpg",
                    "Information": "Antonius van Paduakerk",
                    "Lattitude": "51.587638",
                    "Longitude": "4.777250",
                    "Open": [ ]
                },
                {
                    "Name": "Bibliotheek",
                    "ImageName": "26.jpg",
                    "Information": "Bibliotheek",
                    "Lattitude": "51.588000",
                    "Longitude": "4.778945",
                    "Open": [ ]
                },
                {
                    "Name": "Kloosterkazerne",
                    "ImageName": "12.jpg",
                    "Information": "Klooster kazerne",
                    "Lattitude": "51.587722",
                    "Longitude": "4.781028",
                    "Open": [ ]
                },
                {
                    "Name": "Chasse theater",
                    "ImageName": "26.jpg",
                    "Information": "Chasse theater",
                    "Lattitude": "51.587750",
                    "Longitude": "4.782000",
                    "Open": [ ]
                },
                {
                    "Name": "Binding van Isaac",
                    "ImageName": "25.jpg",
                    "Information": "Binding van Isaac",
                    "Lattitude": "51.588612",
                    "Longitude": "4.780888",
                    "Open": [ ]
                },
                {
                    "Name": "Beyerd",
                    "ImageName": "24.jpg",
                    "Information": "Beyerd",
                    "Lattitude": "51.589667",
                    "Longitude": "4.781000",
                    "Open": [ ]
                },
                {
                    "Name": "Gasthuispoort",
                    "ImageName": "23.jpg",
                    "Information": "Gasthuis poort",
                    "Lattitude": "51.589555",
                    "Longitude": "4.780000",
                    "Open": [ ]
                },
                {
                    "Name": "Willem Merkxtuin",
                    "ImageName": "7.jpg",
                    "Information": "Willem Merkxtuin",
                    "Lattitude": "51.589112",
                    "Longitude": "4.777945",
                    "Open": [ ]
                },
                {
                    "Name": "Begijnenhof",
                    "ImageName": "8.jpg",
                    "Information": "Begijnenhof",
                    "Lattitude": "51.589695",
                    "Longitude": "4.778362",
                    "Open": [ ]
                },
                {
                    "Name": "Einde HistorischeKM",
                    "ImageName": "2.jpg",
                    "Information": "Einde Historische KM",
                    "Lattitude": "51.589500",
                    "Longitude": "4.776250",
                    "Open": [ ]
                }
            ]
        },
        {
            "Name": "Cafes",
            "Items": [
                {
                    "Name": "'t Hart",
                    "ImageName": "2.jpg",
                    "Information": "Cafe",
                    "Lattitude": "51.587768",
                    "Longitude": "4.776655",
                    "Open": [ ]
                },
                {
                    "Name": "Cafe SamSam",
                    "ImageName": "2.jpg",
                    "Information": "Cafe",
                    "Lattitude": "51.587631",
                    "Longitude": "4.776749",
                    "Open": [ ]
                },
                {
                    "Name": "Studio Dande Department.",
                    "ImageName": "2.jpg",
                    "Information": "Cafe",
                    "Lattitude": "51.589645",
                    "Longitude": "4.773857",
                    "Open": [ ]
                },
                {
                    "Name": "Miller Time",
                    "ImageName": "2.jpg",
                    "Information": "Cafe",
                    "Lattitude": "51.588621",
                    "Longitude": "4.776655",
                    "Open": [ ]
                },
                {
                    "Name": "Cafe Dikke",
                    "ImageName": "2.png",
                    "Information": "Cafe",
                    "Lattitude": "51.589428",
                    "Longitude": "4.774455",
                    "Open": [ ]
                }
            ]
        },
        {
            "Name": "Tourist Trail",
            "Items": [
                {
                    "Name": "Valkenberg",
                    "ImageName": "2.png",
                    "Information": "Park",
                    "Lattitude": "51.590843",
                    "Longitude": "4.77887",
                    "Open": [ ]
                }
            ]
        },
        {
            "Name": "Remaining",
            "Items": [ ]
        }
    ]
}
